[
  {
    "id": "palermo",
    "name": "Палермо",
    "summary": "Столица Сицилии, где арабские рынки соседствуют с норманнскими дворцами. Палермо — город контрастов, где каждая улица хранит следы различных цивилизаций. Палаццо Норманни с Палатинской капеллой, украшенной византийскими мозаиками, считается жемчужиной арабо-норманнского стиля.",
    "gallery": [
      "./assets/img/palermo-1.jpg",
      "./assets/img/palermo-2.jpg",
      "./assets/img/palermo-3.jpg"
    ],
    "coords": { "lat": 38.1157, "lng": 13.3613 }
  },
  {
    "id": "catania",
    "name": "Катания",
    "summary": "Город у подножия Этны — самого активного вулкана Европы. Катания была разрушена и отстроена заново после извержения 1669 года и землетрясения 1693 года. Весь центр города построен из черного вулканического камня, что придает ему уникальный характер.",
    "gallery": [
      "./assets/img/catania-1.jpg",
      "./assets/img/catania-2.jpg"
    ],
    "coords": { "lat": 37.5079, "lng": 15.0830 }
  },
  {
    "id": "taormina",
    "name": "Таормина",
    "summary": "Жемчужина ионического побережья с античным театром, откуда открывается захватывающий вид на Этну и море. Таормина привлекала аристократов и художников с XIX века. Греко-римский театр до сих пор используется для концертов и фестивалей.",
    "gallery": [
      "./assets/img/taormina-1.jpg",
      "./assets/img/taormina-2.jpg"
    ],
    "coords": { "lat": 37.8520, "lng": 15.2889 }
  },
  {
    "id": "agrigento",
    "name": "Агридженто",
    "summary": "Долина храмов — один из важнейших археологических комплексов мира. Древняя Акрагас была одним из величайших городов Великой Греции. Храм Конкордии считается наиболее сохранившимся дорическим храмом в мире после Парфенона.",
    "gallery": [
      "./assets/img/agrigento-1.jpg",
      "./assets/img/agrigento-2.jpg",
      "./assets/img/agrigento-3.jpg"
    ],
    "coords": { "lat": 37.3089, "lng": 13.5767 }
  },
  {
    "id": "trapani",
    "name": "Трапани",
    "summary": "Древний порт на западном побережье, известный добычей соли и кораллов. Соляные бассейны Трапани с ветряными мельницами создают сюрреалистичный пейзаж. Город был важным центром торговли на протяжении тысячелетий.",
    "gallery": [
      "./assets/img/trapani-1.jpg"
    ],
    "coords": { "lat": 38.0176, "lng": 12.5364 }
  },
  {
    "id": "siracusa",
    "name": "Сиракузы",
    "summary": "Могущественный город-государство античности, родина Архимеда. Сиракузы соперничали с Афинами за господство в Средиземноморье. Остров Ортиджия с его барочными церквями и узкими улочками — сердце исторического центра.",
    "gallery": [
      "./assets/img/siracusa-1.jpg",
      "./assets/img/siracusa-2.jpg"
    ],
    "coords": { "lat": 37.0754, "lng": 15.2866 }
  },
  {
    "id": "messina",
    "name": "Мессина",
    "summary": "Ворота Сицилии, город у пролива. Знаменитые астрономические часы собора — крупнейший и самый сложный механизм такого рода в мире. Каждый день в полдень происходит захватывающее представление движущихся фигур.",
    "gallery": [
      "./assets/img/messina-1.jpg"
    ],
    "coords": { "lat": 38.1938, "lng": 15.5540 }
  },
  {
    "id": "enna",
    "name": "Энна",
    "summary": "Самый высокий провинциальный центр Италии (931 м над уровнем моря), называемый 'пупом Сицилии'. Отсюда открываются панорамные виды на весь остров. Замок Ломбардия — один из крупнейших средневековых замков Сицилии.",
    "gallery": [
      "./assets/img/enna-1.jpg"
    ],
    "coords": { "lat": 37.5679, "lng": 14.2792 }
  },
  {
    "id": "ragusa",
    "name": "Рагуза",
    "summary": "Город позднего барокко, внесенный в список ЮНЕСКО. После землетрясения 1693 года город был разделен на две части: старую Рагузу Ибла и новую Рагузу Супериоре. Это создало уникальную двухуровневую структуру.",
    "gallery": [
      "./assets/img/ragusa-1.jpg",
      "./assets/img/ragusa-2.jpg"
    ],
    "coords": { "lat": 36.9259, "lng": 14.7304 }
  },
  {
    "id": "caltanissetta",
    "name": "Кальтаниссетта",
    "summary": "Сердце острова, исторический центр добычи серы. В XIX веке регион был мировым лидером по добыче серы. Сегодня Кальтаниссетта сохраняет аутентичный характер внутренней Сицилии, далекой от туристических маршрутов.",
    "gallery": [
      "./assets/img/caltanissetta-1.jpg"
    ],
    "coords": { "lat": 37.4902, "lng": 14.0625 }
  }
]
